,City,Lat,Lng,Max Temp,Humidity,Cloudiness,Wind Speed,Country,Date
0,karpathos,35.507,27.2132,59.0,77,20,9.22,GR,1614321603
1,margate,51.3813,1.3862,39.99,81,0,1.99,GB,1614321604
2,beecher,43.09,-83.6944,25.0,74,1,5.75,US,1614321604
3,albany,42.6001,-73.9662,28.0,56,1,3.51,US,1614321355
4,camacupa,-12.0167,17.4833,60.42,95,100,4.5,AO,1614321605
5,shahrud,36.4182,54.9763,33.44,59,0,2.71,IR,1614321606
6,rikitea,-23.1203,-134.9692,78.67,82,73,8.7,PF,1614321603
7,alta floresta,-9.8756,-56.0861,69.01,95,100,1.95,BR,1614321606
8,atuona,-9.8,-139.0333,79.29,82,4,16.55,PF,1614321607
9,khandyga,62.6667,135.6,-17.43,85,100,1.34,RU,1614321607
10,ushuaia,-54.8,-68.3,42.8,70,75,6.91,AR,1614321590
11,kiama,-34.6833,150.8667,72.0,73,97,1.01,AU,1614321607
12,yar-sale,66.8333,70.8333,-8.46,97,86,2.8,RU,1614321608
13,upernavik,72.7868,-56.1549,7.93,81,100,7.27,GL,1614321608
14,la palma,33.8464,-118.0467,57.2,67,1,3.91,US,1614321608
15,kapaa,22.0752,-159.319,73.4,73,75,23.02,US,1614321609
16,sosva,59.1766,61.8558,0.46,90,85,4.05,RU,1614321609
17,helena,46.5927,-112.0361,33.8,40,90,10.36,US,1614321609
18,barrow,71.2906,-156.7887,-23.8,76,1,4.61,US,1614321610
19,saint george,37.1041,-113.5841,42.01,22,1,6.91,US,1614321610
20,marsh harbour,26.5412,-77.0636,74.12,79,0,8.99,BS,1614321610
21,kibre mengist,5.8833,38.9833,76.17,30,72,6.73,ET,1614321610
22,do gonbadan,30.3586,50.7981,55.4,71,0,4.59,IR,1614321611
23,mataura,-46.1927,168.8643,59.0,82,95,1.99,NZ,1614321612
24,mount isa,-20.7333,139.5,95.0,16,100,5.75,AU,1614321613
25,vaini,-21.2,-175.2,78.8,73,40,4.61,TO,1614321613
26,tuktoyaktuk,69.4541,-133.0374,-38.2,74,1,8.05,CA,1614321613
27,bluff,-46.6,168.3333,59.0,82,100,1.99,NZ,1614321613
28,mecca,21.4267,39.8261,79.88,21,50,6.11,SA,1614321614
29,kaitangata,-46.2817,169.8464,62.01,90,95,8.01,NZ,1614321614
30,kourou,5.1552,-52.6478,78.8,83,90,8.05,GF,1614321614
31,ribeira grande,38.5167,-28.7,59.59,87,18,5.91,PT,1614321614
32,port blair,11.6667,92.75,86.0,66,40,8.05,IN,1614321614
33,general roca,-39.0333,-67.5833,80.6,41,20,13.13,AR,1614321615
34,half moon bay,37.4636,-122.4286,51.01,87,75,3.44,US,1614321615
35,moerai,-22.4333,-151.3333,80.67,83,100,12.57,PF,1614321615
36,mayor pablo lagerenza,-19.9309,-60.7718,72.1,81,100,2.84,PY,1614321615
37,ola,59.5833,151.2833,-1.48,82,98,10.98,RU,1614321616
38,appleton,44.2619,-88.4154,28.0,68,1,9.22,US,1614321616
39,bredasdorp,-34.5322,20.0403,68.0,73,88,6.91,ZA,1614321616
40,pevek,69.7008,170.3133,-23.15,87,92,7.16,RU,1614321617
41,san quintin,30.4833,-115.95,55.99,77,0,1.79,MX,1614321617
42,zlitan,32.4674,14.5687,58.89,68,100,3.13,LY,1614321617
43,damghan,36.1683,54.348,35.82,59,0,2.91,IR,1614321617
44,hermanus,-34.4187,19.2345,69.01,76,32,5.99,ZA,1614321618
45,punta arenas,-53.15,-70.9167,50.0,81,40,13.8,CL,1614321618
46,butaritari,3.0707,172.7902,81.7,82,4,20.69,KI,1614321618
47,belmonte,-15.8631,-38.8828,73.4,78,75,4.61,BR,1614321619
48,new norfolk,-42.7826,147.0587,64.0,63,40,21.85,AU,1614321619
49,sabzevar,36.2126,57.6819,30.2,59,0,13.8,IR,1614321620
50,thompson,55.7435,-97.8558,-11.2,70,90,18.41,CA,1614321620
51,busselton,-33.65,115.3333,77.0,56,49,3.0,AU,1614321621
52,bongandanga,1.5,21.05,84.27,51,0,2.17,CD,1614321621
53,yaan,7.3833,8.5667,77.58,80,100,9.26,NG,1614321621
54,ancud,-41.8697,-73.8203,52.0,93,0,3.2,CL,1614321621
55,bethel,41.3712,-73.414,30.0,68,1,3.31,US,1614321622
56,bengkulu,-3.8004,102.2655,87.91,60,0,19.1,ID,1614321622
57,chokurdakh,70.6333,147.9167,-23.17,88,79,2.33,RU,1614321622
58,norman wells,65.282,-126.8329,-32.8,75,20,3.11,CA,1614321623
59,jamestown,42.097,-79.2353,26.01,93,90,6.73,US,1614321383
60,hithadhoo,-0.6,73.0833,81.93,80,79,12.86,MV,1614321623
61,evensk,61.95,159.2333,-1.01,76,100,8.97,RU,1614321623
62,port hardy,50.6996,-127.4199,42.8,87,75,12.66,CA,1614321624
63,cherskiy,68.75,161.3,-26.05,86,79,4.18,RU,1614321624
64,san onofre,9.7359,-75.5263,79.41,68,80,1.25,CO,1614321624
65,lagoa,39.05,-27.9833,58.53,86,15,6.69,PT,1614321625
66,cibitoke,-2.8833,29.25,72.64,66,2,2.98,BI,1614321625
67,port elizabeth,-33.918,25.5701,64.4,94,75,3.44,ZA,1614321625
68,mpika,-11.8343,31.4529,65.14,93,100,3.38,ZM,1614321626
69,qaanaaq,77.484,-69.3632,8.15,85,100,3.36,GL,1614321626
70,mahebourg,-20.4081,57.7,82.4,74,40,13.8,MU,1614321626
71,port alfred,-33.5906,26.891,69.01,76,36,3.0,ZA,1614321627
72,yuriria,20.2,-101.15,59.0,55,1,2.3,MX,1614321627
73,khatanga,71.9667,102.5,-26.84,81,0,8.12,RU,1614321627
74,christchurch,-43.5333,172.6333,63.0,82,90,11.5,NZ,1614321336
75,gat,31.61,34.7642,60.01,46,0,2.89,IL,1614321628
76,faanui,-16.4833,-151.75,82.17,79,89,13.24,PF,1614321628
77,ginda,30.6945,78.4932,78.8,31,0,3.44,IN,1614321628
78,mar del plata,-38.0023,-57.5575,62.6,88,0,6.91,AR,1614321628
79,caravelas,-17.7125,-39.2481,74.89,86,43,7.11,BR,1614321629
80,karratha,-20.7377,116.8463,95.81,37,0,19.37,AU,1614321629
81,georgetown,5.4112,100.3354,89.6,62,20,9.22,MY,1614321620
82,nikolskoye,59.7035,30.7861,37.4,87,90,13.42,RU,1614321629
83,tiksi,71.6872,128.8694,-23.48,86,56,3.51,RU,1614321629
84,yulara,-25.2406,130.9889,93.2,8,0,11.5,AU,1614321630
85,nizwa,22.9333,57.5333,83.8,24,0,8.41,OM,1614321630
86,marsa matruh,31.3525,27.2453,60.8,82,40,6.91,EG,1614321429
87,hasaki,35.7333,140.8333,55.0,50,75,5.75,JP,1614321631
88,lebu,-37.6167,-73.65,57.81,87,96,13.58,CL,1614321605
89,taos,36.4072,-105.5731,27.0,93,1,3.44,US,1614321631
90,saldanha,-33.0117,17.9442,66.2,63,0,8.05,ZA,1614321631
91,east london,-33.0153,27.9116,64.4,94,40,10.36,ZA,1614321631
92,tasiilaq,65.6145,-37.6368,29.12,94,100,31.34,GL,1614321632
93,dikson,73.5069,80.5464,-13.85,90,100,9.28,RU,1614321632
94,puerto ayora,-0.7393,-90.3518,79.0,92,100,3.0,EC,1614321632
95,tawau,4.2498,117.8871,89.6,62,20,6.91,MY,1614321633
96,saskylakh,71.9167,114.0833,-26.95,80,0,6.93,RU,1614321633
97,mogadishu,2.0371,45.3438,80.6,61,40,12.66,SO,1614321531
98,saint anthony,45.0205,-93.218,28.99,86,1,9.22,US,1614321633
99,fort nelson,58.8053,-122.7002,-2.2,78,90,3.44,CA,1614321634
100,lazarev,52.225,141.5131,4.87,92,100,11.18,RU,1614321634
101,goderich,43.7501,-81.7165,30.2,69,0,6.91,CA,1614321634
102,aragarcas,-15.8975,-52.2508,72.27,93,100,0.96,BR,1614321634
103,carnarvon,-24.8667,113.6333,82.4,69,0,20.71,AU,1614321635
104,kulachi,31.9286,70.4592,84.0,18,0,16.82,PK,1614321635
105,cabo san lucas,22.8909,-109.9124,66.0,35,100,1.68,MX,1614321343
106,racine,42.7495,-88.0751,26.01,93,100,4.61,US,1614321581
107,santa cruz,-17.8,-63.1667,71.6,94,90,17.27,BO,1614321346
108,dunedin,-45.8742,170.5036,59.0,85,100,8.01,NZ,1614321636
109,katsuura,35.1333,140.3,51.01,55,100,11.74,JP,1614321637
110,souillac,-20.5167,57.5167,82.4,74,40,13.8,MU,1614321637
111,patrocinio,-18.9439,-46.9925,68.0,83,0,5.75,BR,1614321580
112,neiafu,-18.65,-173.9833,78.8,83,75,8.66,TO,1614321637
113,santa barbara,34.7333,-120.0343,44.6,70,1,7.05,US,1614321367
114,yellowknife,62.456,-114.3525,-33.0,67,1,3.44,CA,1614321443
115,bundu,23.1833,85.5833,86.0,26,0,4.61,IN,1614321638
116,husavik,66.0449,-17.3389,34.02,83,100,10.69,IS,1614321639
117,coihaique,-45.5752,-72.0662,52.92,82,44,3.29,CL,1614321639
118,mugumu,-1.85,34.7,74.41,49,0,3.89,TZ,1614321639
119,yerbogachen,61.2767,108.0108,-2.45,86,100,4.09,RU,1614321639
120,ilulissat,69.2167,-51.1,24.8,39,20,23.02,GL,1614321640
121,cape town,-33.9258,18.4232,72.0,60,20,19.57,ZA,1614321494
122,tabora,-5.0167,32.8,68.0,94,40,4.59,TZ,1614321640
123,maningrida,-12.0667,134.2667,85.37,66,3,7.96,AU,1614321641
124,muros,42.7762,-9.0603,52.0,81,100,5.99,ES,1614321641
125,launceston,-41.45,147.1667,70.0,45,90,10.36,AU,1614321543
126,arraial do cabo,-22.9661,-42.0278,74.23,90,100,2.95,BR,1614321642
127,antalaha,-14.9003,50.2788,82.33,77,100,5.91,MG,1614321642
128,el bordo,2.117,-76.9821,65.32,91,79,1.34,CO,1614321642
129,kodiak,57.79,-152.4072,35.6,69,90,3.44,US,1614321642
130,torbay,47.6666,-52.7314,33.01,86,90,33.38,CA,1614321643
131,geraldton,-28.7667,114.6,78.8,57,0,21.85,AU,1614321643
132,banjarmasin,-3.3244,114.591,89.6,66,40,8.05,ID,1614321644
133,starosubkhangulovo,53.1031,57.4423,5.11,88,100,4.03,RU,1614321644
134,kruisfontein,-34.0033,24.7314,66.99,86,68,1.99,ZA,1614321644
135,tezu,27.9167,96.1667,86.97,22,35,4.0,IN,1614321645
136,inhambane,-23.865,35.3833,82.4,78,40,6.91,MZ,1614321645
137,walvis bay,-22.9575,14.5053,63.0,93,100,5.99,NA,1614321646
138,pandan,14.0453,124.1694,83.14,76,100,7.58,PH,1614321646
139,salinopolis,-0.6136,-47.3561,77.61,88,99,8.57,BR,1614321646
140,kahului,20.8947,-156.47,73.4,60,20,19.57,US,1614321476
141,lasa,46.6166,10.7002,33.8,74,0,6.91,IT,1614321647
142,homer,59.6425,-151.5483,37.4,70,40,12.66,US,1614321647
143,namibe,-15.1961,12.1522,73.36,69,56,3.31,AO,1614321384
144,kismayo,-0.3582,42.5454,82.35,67,0,17.52,SO,1614321648
145,vikevag,59.0976,5.6969,44.6,87,75,11.5,NO,1614321648
146,victoria,22.2855,114.1577,77.0,80,100,5.1,HK,1614321648
147,mestia,43.0458,42.7278,34.02,81,15,2.15,GE,1614321648
148,skjervoy,70.0311,20.9714,37.4,87,90,23.02,NO,1614321649
149,wukari,7.85,9.7833,77.59,71,100,8.77,NG,1614321649
150,dingle,10.9995,122.6711,87.3,64,18,7.61,PH,1614321650
151,portland,45.5234,-122.6762,44.01,89,100,1.99,US,1614321434
152,lompoc,34.6391,-120.4579,52.0,65,1,8.05,US,1614321650
153,codrington,-38.2667,141.9667,60.76,59,66,13.44,AU,1614321650
154,hirara,24.8,125.2833,75.2,83,40,11.5,JP,1614321433
155,kavaratti,10.5669,72.642,82.4,74,100,11.81,IN,1614321651
156,yen bai,21.7,104.8667,82.24,61,17,3.24,VN,1614321612
157,prince rupert,54.3161,-130.3201,42.8,65,75,9.22,CA,1614321652
158,matagami,49.7502,-77.6328,-4.14,92,54,5.95,CA,1614321652
159,gorontalo,0.5412,123.0595,88.21,63,13,3.38,ID,1614321652
160,shimoda,34.6667,138.95,46.4,76,75,11.5,JP,1614321652
161,hilo,19.7297,-155.09,71.6,78,75,6.91,US,1614321485
162,ponta do sol,32.6667,-17.1,54.0,53,0,3.0,PT,1614321653
163,asosa,10.0667,34.5333,80.01,23,0,5.66,ET,1614321653
164,vardo,70.3705,31.1107,28.4,86,20,3.44,NO,1614321653
165,bandarbeyla,9.4942,50.8122,80.19,64,100,10.85,SO,1614321653
166,dawlatabad,36.4141,64.9053,30.88,18,0,7.7,AF,1614321654
167,mao,39.8885,4.2658,44.6,93,20,6.91,ES,1614321654
168,svobodnyy,51.4,128.1333,9.01,74,100,2.28,RU,1614321654
169,snasa,64.2457,12.3778,42.8,87,75,9.22,NO,1614321655
170,hobart,-42.8794,147.3294,64.0,63,40,21.85,AU,1614321630
171,nuuk,64.1835,-51.7216,17.6,93,10,2.3,GL,1614321641
172,vanavara,60.34,102.2797,-1.3,85,100,10.83,RU,1614321656
173,poum,-20.2333,164.0167,81.77,74,57,6.58,NC,1614321656
174,dhone,15.4167,77.8833,93.29,17,18,2.62,IN,1614321656
175,fortuna,40.5982,-124.1573,46.0,93,1,9.22,US,1614321656
176,warren,39.4334,-84.1666,34.0,80,1,3.44,US,1614321657
177,clyde river,70.4692,-68.5914,-9.4,84,75,27.63,CA,1614321628
178,iqaluit,63.7506,-68.5145,-22.0,69,1,23.02,CA,1614321657
179,mount gambier,-37.8333,140.7667,66.2,48,40,14.97,AU,1614321658
180,quelimane,-17.8786,36.8883,82.4,83,20,3.44,MZ,1614321658
181,itoman,26.1247,127.6694,77.0,83,75,18.41,JP,1614321658
182,fasa,28.9383,53.6482,53.6,71,0,2.44,IR,1614321659
183,lavrentiya,65.5833,-171.0,-22.05,75,0,10.04,RU,1614321659
184,port keats,-14.25,129.55,87.49,65,86,7.58,AU,1614321660
185,beringovskiy,63.05,179.3167,-19.19,96,100,11.99,RU,1614321660
186,russell,32.3502,-85.1999,60.8,82,90,3.11,US,1614321660
187,astana,51.1801,71.446,-13.0,77,40,15.66,KZ,1614321380
188,san jose,37.3394,-121.895,50.0,81,1,4.61,US,1614321656
189,naze,28.3667,129.4833,75.2,78,75,20.71,JP,1614321662
190,kenai,60.5544,-151.2583,33.8,74,1,9.22,US,1614321662
191,coquimbo,-29.9533,-71.3436,60.8,88,90,6.91,CL,1614321428
192,mexico,15.0646,120.7198,91.4,46,75,11.5,PH,1614321663
193,alanya,36.5438,31.9998,51.8,54,0,4.61,TR,1614321664
194,pizarro,4.9533,-77.366,78.24,87,100,1.39,CO,1614321664
195,la ronge,55.1001,-105.2842,8.6,78,100,12.66,CA,1614321664
196,boueni,-12.9025,45.0761,84.2,74,75,5.75,YT,1614321665
197,monrovia,6.3005,-10.7969,77.16,89,5,4.92,LR,1614321488
198,correntina,-13.3433,-44.6367,67.46,91,39,1.86,BR,1614321665
199,sola,-13.8833,167.55,86.0,74,75,12.71,VU,1614321666
200,beringen,51.0507,5.2216,44.01,93,75,5.75,BE,1614321666
201,gogrial,8.5332,28.1004,79.72,10,0,7.94,SS,1614321667
202,saint-philippe,-21.3585,55.7679,86.0,51,0,6.91,RE,1614321667
203,morgan city,29.6994,-91.2068,64.4,100,1,9.22,US,1614321667
204,iskateley,67.6803,53.1512,-2.52,90,98,17.34,RU,1614321667
205,saint-louis,16.3333,-15.0,71.6,28,0,2.3,SN,1614321668
206,trastenik,43.52,24.4685,33.8,93,1,2.3,BG,1614321668
207,merauke,-8.4667,140.3333,81.54,82,100,8.48,ID,1614321668
208,bambous virieux,-20.3428,57.7575,84.0,74,40,13.8,MU,1614321669
209,lorengau,-2.0226,147.2712,84.06,77,100,10.74,PG,1614321669
210,hamilton,39.1834,-84.5333,36.0,80,40,3.76,US,1614321632
211,sao joao da barra,-21.6403,-41.0511,73.92,91,100,0.47,BR,1614321669
212,agde,43.3108,3.4758,46.4,93,75,3.44,FR,1614321669
213,abu kamal,34.4506,40.9171,56.12,38,0,6.71,SY,1614321670
214,ayan,56.45,138.1667,2.16,87,13,3.85,RU,1614321670
215,didwana,27.4,74.5667,90.18,19,0,15.23,IN,1614321670
216,kunming,25.0389,102.7183,68.0,30,0,11.18,CN,1614321671
217,port lincoln,-34.7333,135.8667,65.88,62,20,11.45,AU,1614321671
218,dingli,35.8614,14.3822,55.0,87,90,2.3,MT,1614321671
219,sayansk,54.1088,102.1648,5.68,94,100,12.35,RU,1614321672
220,biak,-0.9131,122.8766,83.68,70,55,0.76,ID,1614321672
221,castro,-24.7911,-50.0119,59.86,98,48,6.73,BR,1614321672
222,adrar,20.5022,-10.0711,56.5,27,0,8.86,MR,1614321673
223,port hawkesbury,45.6169,-61.3485,18.0,67,90,24.16,CA,1614321673
224,manta,-0.95,-80.7333,78.8,83,75,4.61,EC,1614321673
225,longyearbyen,78.2186,15.6401,28.4,93,90,3.44,SJ,1614321674
226,skibbereen,51.55,-9.2667,39.2,93,40,5.75,IE,1614321674
227,conceicao da barra,-18.5933,-39.7322,74.23,91,84,5.23,BR,1614321674
228,talnakh,69.4865,88.3972,-18.24,86,93,4.54,RU,1614321674
229,slave lake,55.2834,-114.769,6.8,85,90,17.27,CA,1614321675
230,port-gentil,-0.7193,8.7815,77.0,100,40,4.61,GA,1614321675
231,ricardo palma,-11.9181,-76.6664,71.01,88,0,5.75,PE,1614321676
232,pisco,-13.7,-76.2167,69.8,73,0,2.3,PE,1614321676
233,bayir,37.2687,28.2167,46.4,76,0,4.61,TR,1614321676
234,brae,60.3964,-1.353,44.6,93,75,17.27,GB,1614321677
235,imbituba,-28.24,-48.6703,71.6,83,20,8.05,BR,1614321677
236,manzil salim,35.8567,8.4765,35.6,75,0,4.61,TN,1614321677
237,labrea,-7.2586,-64.7981,72.45,88,100,1.79,BR,1614321678
238,aloleng,16.1307,119.7824,83.17,66,0,9.89,PH,1614321678
239,nishihara,26.1842,127.7558,77.0,73,75,16.11,JP,1614321678
240,riyadh,24.6877,46.7219,59.0,54,0,11.54,SA,1614321519
241,pasighat,28.0667,95.3333,82.94,29,22,4.54,IN,1614321679
242,umba,66.6871,34.3429,28.47,98,100,3.11,RU,1614321679
243,pangnirtung,66.1451,-65.7125,-4.83,87,100,2.86,CA,1614321679
244,huanren,41.2647,125.3667,39.92,40,0,2.73,CN,1614321680
245,chuy,-33.6971,-53.4616,62.56,88,0,5.26,UY,1614321680
246,kastamonu,41.5,33.6667,32.0,86,0,0.74,TR,1614321680
247,the valley,18.217,-63.0578,77.0,73,40,14.97,AI,1614321474
248,paengaroa,-37.8167,176.4167,68.0,76,100,1.01,NZ,1614321681
249,bathsheba,13.2167,-59.5167,77.0,69,40,21.85,BB,1614321681
250,guaruja,-23.9931,-46.2564,75.99,26,73,2.93,BR,1614321462
251,chistogorskiy,53.9835,87.3843,-4.07,86,100,15.12,RU,1614321682
252,severo-kurilsk,50.6789,156.125,21.22,91,100,10.65,RU,1614321682
253,zyryanka,65.75,150.85,-22.97,87,100,4.41,RU,1614321683
254,sept-iles,50.2001,-66.3821,3.99,47,20,12.66,CA,1614321683
255,konosha,60.9736,40.257,7.74,96,100,9.15,RU,1614321684
256,chifeng,42.2683,118.9636,48.96,17,0,10.63,CN,1614321684
257,saint-augustin,51.226,-58.6502,13.33,91,100,17.96,CA,1614321684
258,sangmelima,2.9333,11.9833,72.07,81,100,3.49,CM,1614321496
259,bocaiuva,-17.1078,-43.815,66.31,94,100,2.66,BR,1614321685
260,skagen,57.7209,10.5839,41.0,89,9,20.0,DK,1614321685
261,meulaboh,4.1363,96.1285,86.47,64,100,10.65,ID,1614321685
262,alamosa,37.4695,-105.87,19.4,73,1,5.75,US,1614321685
263,ahipara,-35.1667,173.1667,66.22,78,72,2.24,NZ,1614321686
264,presidencia roque saenz pena,-26.7852,-60.4388,71.01,65,0,1.99,AR,1614321686
265,campbell river,50.0163,-125.2446,37.99,94,100,2.42,CA,1614321613
266,leningradskiy,69.3833,178.4167,-25.33,84,26,2.46,RU,1614321687
267,avarua,-21.2078,-159.775,77.0,94,20,5.75,CK,1614321687
268,santiago,-33.4569,-70.6483,68.0,77,0,6.91,CL,1614321688
269,qeshm,26.9581,56.2719,77.0,38,40,18.41,IR,1614321688
270,monte patria,-30.6919,-70.9467,64.6,79,97,1.77,CL,1614321688
271,seoul,37.5683,126.9778,60.8,13,0,6.91,KR,1614321565
272,barcelos,41.5388,-8.6151,54.0,87,0,3.44,PT,1614321551
273,rafai,4.95,23.9167,80.22,15,0,5.28,CF,1614321688
274,pitimbu,-7.4706,-34.8086,75.2,100,40,3.78,BR,1614321689
275,muscat,23.6139,58.5922,82.4,61,0,8.05,OM,1614321400
276,sao filipe,14.8961,-24.4956,73.22,60,0,9.35,CV,1614321689
277,tolbazy,54.0241,55.8825,-7.01,64,0,6.71,RU,1614321690
278,waitara,-38.925,174.25,66.0,72,0,3.0,NZ,1614321690
279,paso de carrasco,-34.8603,-56.0522,66.2,72,0,8.05,UY,1614321408
280,southbridge,42.0751,-72.0334,28.99,34,0,7.87,US,1614321691
281,ewo,-0.8725,14.8206,77.11,74,36,6.33,CG,1614321691
282,araouane,18.9048,-3.5265,56.16,35,0,7.61,ML,1614321692
283,kitakata,37.65,139.8667,42.01,52,75,13.8,JP,1614321692
284,newcastle,-32.9272,151.7765,78.8,73,100,13.8,AU,1614321692
285,deputatskiy,69.3,139.9,-29.6,86,82,0.6,RU,1614321692
286,madingou,-4.1536,13.55,74.73,87,94,1.25,CG,1614321693
287,bardiyah,31.7561,25.0865,59.23,75,92,12.71,LY,1614321693
288,constitucion,-35.3333,-72.4167,55.09,89,60,9.46,CL,1614321693
289,craig,40.5153,-107.5464,14.0,73,1,6.91,US,1614321694
290,traralgon,-38.1833,146.5333,69.01,50,0,4.0,AU,1614321694
291,cap-aux-meules,47.3821,-61.8597,19.4,73,100,27.63,CA,1614321662
292,touros,-5.1989,-35.4608,77.0,94,75,9.22,BR,1614321694
293,tuatapere,-46.1333,167.6833,59.0,82,100,1.99,NZ,1614321695
294,santa maria da vitoria,-13.3947,-44.1886,68.43,90,79,1.19,BR,1614321695
295,sao gabriel da cachoeira,-0.1303,-67.0892,72.61,98,84,0.49,BR,1614321696
296,ponta delgada,37.7333,-25.6667,57.2,82,75,12.66,PT,1614321696
297,vila franca do campo,37.7167,-25.4333,57.2,82,75,12.66,PT,1614321696
298,fatehabad,29.5167,75.45,92.07,12,0,9.73,IN,1614321696
299,taoudenni,22.6783,-3.9836,57.61,35,0,6.87,ML,1614321696
300,richards bay,-28.783,32.0377,72.59,83,80,9.86,ZA,1614321697
301,rusape,-18.5278,32.1284,72.27,75,46,0.54,ZW,1614321697
302,mandalgovi,45.7625,106.2708,43.05,32,54,15.01,MN,1614321697
303,sampit,-2.5333,112.95,96.51,34,52,4.74,ID,1614321698
304,huarmey,-10.0681,-78.1522,70.47,71,63,3.42,PE,1614321698
305,kano,12.0001,8.5167,60.8,39,0,4.61,NG,1614321698
306,luderitz,-26.6481,15.1594,66.31,72,0,0.96,NA,1614321698
307,itarema,-2.9248,-39.9167,76.37,88,90,7.92,BR,1614321699
308,newberry,34.2746,-81.6187,52.0,95,1,2.71,US,1614321699
309,baiyin,36.5583,104.2081,53.6,35,0,8.95,CN,1614321700
310,sitka,57.0531,-135.33,37.4,87,90,9.22,US,1614321700
311,verkhoyansk,67.5447,133.385,-24.65,93,90,1.79,RU,1614321700
312,vallenar,-28.5708,-70.7581,62.04,75,72,2.82,CL,1614321701
313,bwanga,-3.0308,31.7601,71.92,81,19,6.49,TZ,1614321701
314,takoradi,4.8845,-1.7554,78.98,86,100,6.04,GH,1614321701
315,stirling,56.119,-3.9368,39.99,91,60,4.81,GB,1614321701
316,springdale,36.1867,-94.1288,44.6,49,90,8.05,US,1614321606
317,pacific grove,36.6177,-121.9166,51.01,71,1,4.61,US,1614321698
318,daytona beach,29.2108,-81.0228,59.0,82,1,3.44,US,1614321567
319,preobrazheniye,42.9019,133.9064,24.66,75,0,13.18,RU,1614321702
320,carbonia,39.1672,8.5222,50.0,100,75,3.44,IT,1614321703
321,kununurra,-15.7667,128.7333,98.6,29,84,5.75,AU,1614321703
322,vincennes,48.85,2.4333,46.99,87,90,3.44,FR,1614321703
323,rawson,-43.3002,-65.1023,67.15,61,67,12.5,AR,1614321693
324,swift current,50.2834,-107.8014,28.4,69,75,19.57,CA,1614321672
325,pokaran,26.9167,71.9167,94.84,12,0,15.88,IN,1614321704
326,aleksandrov gay,50.147,48.5704,22.1,98,100,7.0,RU,1614321704
327,vorukh,39.8494,70.5838,26.01,57,0,3.04,TJ,1614321704
328,cidreira,-30.1811,-50.2056,72.12,72,0,11.56,BR,1614321705
329,puri,19.8,85.85,96.8,14,0,1.14,IN,1614321610
330,lesnoy,57.6198,63.0784,-1.62,90,87,3.24,RU,1614321705
331,kapustin yar,48.5831,45.7372,33.06,92,100,13.0,RU,1614321705
332,strezhevoy,60.7333,77.5889,-25.6,62,0,6.71,RU,1614321706
333,filadelfia,39.9523,-75.1638,39.2,69,75,5.75,US,1614321594
334,bosaso,11.2842,49.1816,79.12,62,7,3.8,SO,1614321706
335,ordubad,38.9059,46.0234,33.8,64,0,2.3,AZ,1614321706
336,lucapa,-8.4192,20.7447,69.78,90,96,3.78,AO,1614321707
337,taybad,34.74,60.7756,30.94,59,0,13.69,IR,1614321707
338,koshki,54.2091,50.4677,6.51,94,99,13.6,RU,1614321708
339,bereda,43.2686,-7.5406,46.0,100,100,4.0,ES,1614321708
340,calama,-22.4667,-68.9333,51.8,46,0,14.97,CL,1614321708
341,kaiyuan,23.6977,103.3037,72.88,34,55,10.02,CN,1614321709
342,alyangula,-13.8483,136.4192,78.8,89,75,2.3,AU,1614321709
343,ligayan,4.6533,119.4706,82.96,72,16,7.83,PH,1614321709
344,westlock,54.1502,-113.8688,28.4,93,100,9.22,CA,1614321709
345,schonebeck,52.0167,11.75,46.0,90,100,1.01,DE,1614321709
346,wanning,18.8003,110.3967,78.71,74,74,11.77,CN,1614321709
347,kavieng,-2.5744,150.7967,84.78,70,87,9.15,PG,1614321710
348,college,64.8569,-147.8028,6.8,72,90,2.1,US,1614321710
349,nome,64.5011,-165.4064,-11.2,84,1,5.46,US,1614321710
350,panino,51.6467,40.1346,37.4,100,90,8.95,RU,1614321711
351,abnub,27.2696,31.1511,50.0,66,0,9.22,EG,1614321711
352,nizhniy kuranakh,58.8353,125.4869,-1.03,87,87,4.72,RU,1614321711
353,zweibrucken,49.25,7.3667,41.0,81,0,3.44,DE,1614321711
354,yambio,4.5721,28.3955,78.84,16,97,7.54,SS,1614321711
355,tamandare,-8.7597,-35.1047,76.71,80,3,1.97,BR,1614321712
356,grand gaube,-20.0064,57.6608,84.0,68,22,8.99,MU,1614321712
357,bagan,54.1001,77.6646,-12.24,93,100,12.03,RU,1614321712
358,goma,-1.6792,29.2228,72.88,61,6,1.43,CD,1614321713
359,aswan,24.0934,32.907,64.85,32,0,8.97,EG,1614321713
360,san andres,12.5847,-81.7006,80.6,74,40,13.8,CO,1614321713
361,bulawayo,-20.15,28.5833,71.02,67,79,8.84,ZW,1614321714
362,nanortalik,60.1432,-45.2371,26.65,92,100,7.29,GL,1614321714
363,sinnamary,5.3833,-52.95,76.82,85,100,13.98,GF,1614321714
364,seymchan,62.8833,152.4333,-19.53,85,92,2.91,RU,1614321715
365,jiangyou,31.7667,104.7167,55.18,52,89,5.03,CN,1614321715
366,laguna,38.421,-121.4238,48.99,53,1,0.56,US,1614321545
367,banda aceh,5.5577,95.3222,84.52,62,9,9.69,ID,1614321716
368,hami,42.8,93.45,40.21,53,100,11.74,CN,1614321716
369,olafsvik,64.8945,-23.7142,42.85,89,100,19.66,IS,1614321716
370,tierra colorada,17.1667,-99.5833,72.66,54,0,3.89,MX,1614321716
371,ocos,14.5094,-92.1933,79.11,69,20,3.42,GT,1614321717
372,marrakesh,31.6315,-8.0083,48.2,100,75,5.75,MA,1614321710
373,tigil,57.8,158.6667,-1.01,92,99,5.61,RU,1614321717
374,airai,-8.9266,125.4092,68.2,85,73,3.36,TL,1614321717
375,oktyabrskoye,43.0645,44.7417,38.64,76,100,3.53,RU,1614321718
376,liwale,-9.7667,37.9333,79.86,78,45,4.7,TZ,1614321718
377,kralendijk,12.15,-68.2667,78.8,73,40,19.57,BQ,1614321719
378,isangel,-19.55,169.2667,84.2,70,75,11.5,VU,1614321719
379,esperance,-33.8667,121.9,68.0,64,90,17.27,AU,1614321719
380,manosque,43.8288,5.7869,39.2,100,1,2.3,FR,1614321719
381,marsabit,2.3284,37.9899,71.58,66,0,15.95,KE,1614321720
382,palauig,15.435,119.9045,82.94,64,0,7.61,PH,1614321720
383,korla,41.7597,86.1469,43.07,39,100,19.22,CN,1614321552
384,vaitape,-16.5167,-151.75,82.15,79,94,13.15,PF,1614321720
385,loandjili,-4.7561,11.8578,75.2,94,40,4.61,CG,1614321721
386,nhulunbuy,-12.2333,136.7667,86.0,62,75,8.05,AU,1614321721
387,byurakan,40.338,44.2714,33.8,60,0,1.14,AM,1614321722
388,canaries,28.0,-15.5,62.6,55,75,21.85,ES,1614321723
389,gazojak,41.1875,61.4036,22.98,57,100,6.04,TM,1614321723
390,nhlangano,-27.1167,31.2,65.35,80,65,1.9,SZ,1614321723
391,avera,33.194,-82.5271,48.2,100,1,4.61,US,1614321724
392,grindavik,63.8424,-22.4338,44.6,93,75,21.85,IS,1614321724
393,carlisle,40.2015,-77.1889,36.0,69,100,2.98,US,1614321724
394,vao,-22.6667,167.4833,78.42,80,0,21.32,NC,1614321724
395,isla vista,34.4133,-119.861,55.0,70,1,3.44,US,1614321483
396,envira,-7.3,-70.2167,72.01,97,100,1.79,BR,1614321725
397,puro,12.4841,123.3827,85.42,68,98,6.96,PH,1614321725
398,rosario do sul,-30.2583,-54.9142,60.31,84,0,7.7,BR,1614321726
399,lesnyye polyany,55.9667,37.8667,39.2,93,90,15.66,RU,1614321726
400,buin,-33.7333,-70.75,68.0,77,0,6.91,CL,1614321726
401,afrikanda,67.4429,32.7828,18.0,95,99,1.03,RU,1614321726
402,cap malheureux,-19.9842,57.6142,84.0,68,32,8.99,MU,1614321727
403,alexandria,31.2156,29.9553,55.4,71,0,2.86,EG,1614321727
404,harper,4.375,-7.7169,77.32,86,6,1.34,LR,1614321727
405,lagos,6.5833,3.75,81.81,78,52,5.3,NG,1614321548
406,iwanai,42.9744,140.5089,21.45,91,99,14.07,JP,1614321728
407,necochea,-38.5473,-58.7368,68.0,64,0,3.0,AR,1614321728
408,bulgan,48.8125,103.5347,32.23,74,100,9.93,MN,1614321728
409,te anau,-45.4167,167.7167,61.39,62,100,4.61,NZ,1614321729
410,la crosse,43.8014,-91.2396,26.6,86,75,6.91,US,1614321579
411,ust-karsk,52.7011,118.8077,13.57,89,100,7.07,RU,1614321729
412,chimoio,-19.1164,33.4833,78.8,89,40,6.91,MZ,1614321730
413,khani,41.9563,42.9566,42.8,87,75,4.61,GE,1614321730
414,mugur-aksy,50.35,90.5,-3.32,69,81,6.93,RU,1614321730
415,vila velha,-20.3297,-40.2925,77.0,88,75,5.75,BR,1614321731
416,aneho,6.2333,1.6,78.8,73,20,3.44,TG,1614321731
417,abay,49.6311,72.8539,-11.2,70,75,15.66,KZ,1614321731
418,vostok,46.4856,135.8833,2.8,93,100,7.02,RU,1614321732
419,arlit,18.7369,7.3853,64.45,13,0,3.85,NE,1614321732
420,terney,45.0503,136.6092,16.63,84,13,12.86,RU,1614321732
421,oeiras do para,-2.0031,-49.8544,73.69,97,100,2.26,BR,1614321732
422,nizhniy odes,63.6445,54.856,-4.86,89,100,9.28,RU,1614321733
423,palmas bellas,9.2319,-80.0867,81.0,77,21,11.99,PA,1614321733
424,vila,42.0304,-8.1588,44.01,91,74,4.0,PT,1614321733
425,murray bridge,-35.1167,139.2667,71.01,51,0,1.01,AU,1614321733
426,shubarkuduk,49.1447,56.4872,5.79,94,100,16.93,KZ,1614321676
427,cheremukhovo,60.3484,59.9851,2.66,89,76,3.27,RU,1614321734
428,ostrovnoy,68.0531,39.5131,19.36,95,99,17.29,RU,1614321734
429,taree,-31.9,152.4667,80.6,57,98,9.22,AU,1614321735
430,carmen,18.6333,-91.8333,76.12,76,0,14.12,MX,1614321735
431,pauini,-7.7136,-66.9764,72.36,97,100,1.83,BR,1614321736
432,teguldet,57.3064,88.1667,-4.85,85,100,11.56,RU,1614321736
433,miandrivazo,-19.5167,45.4667,85.5,63,74,1.36,MG,1614321736
434,veraval,20.9,70.3667,85.28,38,0,12.19,IN,1614321611
435,manjacaze,-24.7117,33.8828,77.9,81,98,11.05,MZ,1614321736
436,kloulklubed,7.0419,134.2556,77.0,94,90,8.05,PW,1614321737
437,rongcheng,30.634,117.8517,44.37,88,100,7.09,CN,1614321738
438,acarau,-2.8856,-40.12,77.0,88,97,8.43,BR,1614321738
439,ucluelet,48.9329,-125.5528,42.01,88,100,8.01,CA,1614321463
440,garowe,8.4054,48.4845,80.62,46,0,11.45,SO,1614321738
441,mournies,35.4764,24.0092,53.6,94,40,6.04,GR,1614321739
442,mae hong son,19.3003,97.9685,91.4,31,0,4.21,TH,1614321739
443,chekhov,55.1431,37.4711,41.0,87,90,11.18,RU,1614321739
444,selma,36.5708,-119.6121,51.8,58,20,4.61,US,1614321740
445,smithers,54.7804,-127.1743,32.0,86,75,5.75,CA,1614321732
446,nenjiang,49.1833,125.2167,10.29,91,100,4.29,CN,1614321740
447,siloam springs,36.1881,-94.5405,44.6,65,90,5.75,US,1614321735
448,benoni,-26.1885,28.3208,66.0,92,0,0.6,ZA,1614321741
449,paamiut,61.994,-49.6678,21.06,86,100,8.66,GL,1614321741
450,borgo san dalmazzo,44.333,7.4858,50.0,87,0,4.61,IT,1614321741
451,mikuni,36.2171,136.1519,46.4,53,75,17.27,JP,1614321741
452,suleja,9.1758,7.1808,76.78,25,7,3.83,NG,1614321741
453,omsukchan,62.5333,155.8,-25.73,83,100,5.75,RU,1614321742
454,ansalta,42.6894,46.1178,34.95,79,99,5.55,RU,1614321742
455,tanhacu,-14.0214,-41.2481,68.5,87,83,4.32,BR,1614321742
456,acapulco,16.8634,-99.8901,76.03,59,0,4.21,MX,1614321743
457,kudahuvadhoo,2.6708,72.8944,82.26,70,60,10.04,MV,1614321743
458,akureyri,65.6835,-18.0878,35.92,82,100,6.13,IS,1614321743
459,saint-pierre,-21.3393,55.4781,86.0,51,0,6.91,RE,1614321744
460,mirnyy,62.5353,113.9611,-13.32,96,100,9.73,RU,1614321744
461,lanzhou,36.0564,103.7922,53.6,35,0,8.95,CN,1614321488
462,alugan,12.2188,125.4808,83.52,74,9,8.99,PH,1614321745
463,broome,42.2506,-75.833,21.99,73,1,5.75,US,1614321745
464,morrope,-6.5417,-80.0111,69.01,86,96,1.99,PE,1614321745
465,axim,4.8699,-2.2405,78.89,87,100,5.75,GH,1614321746
466,gizo,-8.103,156.8419,82.67,75,100,10.94,SB,1614321746
467,zhaoyuan,37.3592,120.3964,55.99,25,100,10.38,CN,1614321746
468,erdemli,36.605,34.3084,58.24,40,0,3.49,TR,1614321747
469,beira,-19.8436,34.8389,82.4,83,20,2.3,MZ,1614321637
470,tucumcari,35.1717,-103.725,26.6,54,1,9.71,US,1614321747
471,shahr-e babak,30.1165,55.1186,39.24,72,56,2.46,IR,1614321747
472,los llanos de aridane,28.6585,-17.9182,60.8,63,40,14.97,ES,1614321748
473,henties bay,-22.116,14.2845,63.0,93,100,5.99,NA,1614321748
474,mananjary,-21.2167,48.3333,84.54,68,35,5.35,MG,1614321748
475,madras,13.0878,80.2785,86.0,51,20,5.75,IN,1614321497
476,tilichiki,60.4667,166.1,-15.03,88,98,12.28,RU,1614321749
477,borogontsy,62.6683,131.1683,-17.32,85,100,0.92,RU,1614321749
478,marawi,7.9986,124.2928,82.99,83,81,5.99,PH,1614321749
479,berlevag,70.8578,29.0864,35.6,69,0,17.27,NO,1614321750
480,dongsheng,39.8161,109.9776,44.04,35,100,32.86,CN,1614321750
481,waverly,42.7392,-84.6208,24.8,80,1,3.44,US,1614321750
482,billings,45.7833,-108.5007,33.8,34,1,14.97,US,1614321631
483,oranzherei,45.8476,47.5663,26.6,93,90,13.42,RU,1614321751
484,bud,39.447,-86.1758,32.0,80,1,5.28,US,1614321751
485,provideniya,64.3833,-173.3,-11.56,79,0,9.24,RU,1614321752
486,lujan,-34.5703,-59.105,72.0,95,0,8.14,AR,1614321752
487,papara,-3.9839,-38.7273,82.4,78,40,5.75,BR,1614321752
488,aguimes,27.9054,-15.4461,62.6,55,75,21.85,ES,1614321753
489,yantai,37.5333,121.4,41.61,66,100,10.78,CN,1614321753
490,khirkiya,22.1674,76.8605,93.97,12,0,8.84,IN,1614321753
491,buala,-8.145,159.5921,78.64,87,100,12.08,SB,1614321754
492,nova olimpia,-14.7972,-57.2881,72.1,97,100,3.2,BR,1614321754
493,huron,41.1501,-82.5499,30.0,88,0,3.33,US,1614321754
494,umm kaddadah,13.6017,26.6876,67.64,23,0,21.94,SD,1614321755
495,olinda,-8.0089,-34.8553,73.4,88,75,5.75,BR,1614321755
496,guozhen,34.3659,107.359,44.56,62,100,5.73,CN,1614321755
497,cururupu,-1.8283,-44.8683,75.61,94,100,3.33,BR,1614321755
498,morant bay,17.8815,-76.4093,77.0,73,20,9.22,JM,1614321756
499,tautira,-17.7333,-149.15,84.0,78,40,6.91,PF,1614321756
500,kaifeng,34.7911,114.3483,46.4,53,84,13.42,CN,1614321757
501,matay,28.419,30.7792,60.17,58,0,8.28,EG,1614321757
502,skala,50.2305,19.8536,46.0,100,0,2.3,PL,1614321757
503,palmerston,-12.486,130.9833,90.0,51,40,9.22,AU,1614321758
504,oranjestad,12.524,-70.027,75.2,88,75,16.11,AW,1614321674
505,kendari,-3.945,122.4989,89.91,53,47,3.91,ID,1614321758
506,sonoita,31.85,-112.8333,48.0,24,0,3.53,MX,1614321758
507,roald,62.5833,6.1333,42.8,87,75,11.5,NO,1614321759
508,idil,37.3411,41.8895,46.4,49,0,6.91,TR,1614321759
509,hailey,43.5196,-114.3153,15.8,92,1,4.61,US,1614321759
510,klaksvik,62.2266,-6.589,44.6,100,90,9.22,FO,1614321759
511,tiznit,29.5833,-9.5,50.97,86,100,7.76,MA,1614321760
512,maracaibo,10.6317,-71.6406,78.96,69,89,11.61,VE,1614321760
513,ketchikan,55.3422,-131.6461,41.0,75,90,8.05,US,1614321761
514,jaguey grande,22.5269,-81.1286,69.8,94,20,3.44,CU,1614321761
515,luangwa,-15.6167,30.4167,80.44,84,49,0.54,ZM,1614321761
516,hobyo,5.3505,48.5268,81.84,64,39,17.72,SO,1614321762
517,pavlovka,52.6897,47.1405,19.11,96,96,1.39,RU,1614321762
518,kauhajoki,62.4333,22.1833,36.0,100,0,4.61,FI,1614321762
519,nelson bay,-32.7167,152.15,78.8,73,100,13.8,AU,1614321546
520,bandarban,22.1965,92.2262,94.98,19,0,6.24,BD,1614321763
521,nagorsk,59.3172,50.8078,-4.7,90,100,8.43,RU,1614321763
522,maniitsoq,65.4167,-52.9,18.73,82,0,4.16,GL,1614321763
523,corpus christi,27.8006,-97.3964,70.0,88,90,21.85,US,1614321503
524,bubaque,11.2833,-15.8333,77.05,61,0,8.77,GW,1614321764
525,gashua,12.871,11.0482,69.21,22,0,11.3,NG,1614321764
526,palana,59.1167,159.9667,-2.11,94,93,10.0,RU,1614321764
527,kabinda,-6.1333,24.4833,73.65,88,48,4.54,CD,1614321765
528,mitsamiouli,-11.3847,43.2844,83.77,72,45,4.9,KM,1614321765
529,rognan,67.0953,15.3878,39.0,94,100,7.16,NO,1614321765
530,sassandra,4.95,-6.0833,75.83,92,7,3.67,CI,1614321765
531,shingu,33.7333,135.9833,48.2,93,75,10.36,JP,1614321766
532,ugoofaaru,5.6667,73.0,82.06,71,91,9.57,MV,1614321766
533,puerto carreno,6.189,-67.4859,79.48,67,100,16.91,CO,1614321766
534,soma,39.1855,27.6094,46.4,100,29,4.61,TR,1614321767
535,bac lieu,9.285,105.7244,83.95,63,74,13.58,VN,1614321477
536,alihe,50.5667,123.7167,13.15,82,100,5.61,CN,1614321767
537,trinidad,-14.8333,-64.9,74.64,94,100,3.69,BO,1614321767
538,charters towers,-20.1,146.2667,79.25,76,94,11.32,AU,1614321767
539,ladyzhyn,48.685,29.2368,39.11,92,0,7.4,UA,1614321768
540,zhigansk,66.7697,123.3711,-26.86,83,81,1.59,RU,1614321768
541,kuala terengganu,5.3302,103.1408,89.6,62,20,9.22,MY,1614321768
542,latung,5.5,120.8833,83.34,67,94,1.07,PH,1614321768
543,kirakira,-10.4544,161.9205,82.15,81,100,5.41,SB,1614321769
544,marquette,46.5333,-87.6335,25.0,72,0,9.62,US,1614321769
545,tromso,69.6496,18.957,37.4,81,75,14.97,NO,1614321619
